City,City Latitude,City Longitude,Max Temperature,Humidity,Cloud Coverage,Wind Speed,City Country,City Datetime
Henties Bay,-22.116,14.2845,69.01,84,34,12.84,NA,1613413207
Tiksi,71.6872,128.8694,-7.22,91,100,9.28,RU,1613413208
Ulcinj,41.9294,19.2244,41.0,38,0,10.36,ME,1613412982
Faya,18.3851,42.4509,62.6,82,0,3.44,SA,1613413209
New Norfolk,-42.7826,147.0587,55.99,78,95,1.48,AU,1613413210
Mar del Plata,-38.0023,-57.5575,71.01,94,75,9.22,AR,1613413211
Rikitea,-23.1203,-134.9692,79.25,79,41,15.77,PF,1613413211
Lavrentiya,65.5833,-171.0,-13.92,85,0,11.39,RU,1613413212
Sittwe,20.15,92.9,68.85,75,0,9.91,MM,1613413213
Hakkâri Province,37.5833,44.1667,27.1,86,1,1.28,TR,1613413213
Yellowknife,62.456,-114.3525,-2.99,77,20,16.11,CA,1613413214
Juneau,58.3019,-134.4197,21.2,68,90,5.75,US,1613413214
Vaini,-21.2,-175.2,73.4,94,40,3.44,TO,1613413215
Ushuaia,-54.8,-68.3,59.0,51,40,3.44,AR,1613413180
Port Alfred,-33.5906,26.891,66.99,83,19,1.99,ZA,1613413216
Laguna,38.421,-121.4238,53.01,87,90,11.5,US,1613412954
Bubaque,11.2833,-15.8333,77.61,64,0,12.75,GW,1613413218
Port Moresby,-9.4431,147.1797,75.88,89,97,4.85,PG,1613413218
Departamento de Maldonado,-34.6667,-54.9167,78.01,83,40,12.66,UY,1613412926
Arlit,18.7369,7.3853,75.7,16,0,2.8,NE,1613413220
Albany,42.6001,-73.9662,26.01,66,100,1.86,US,1613413124
Betioky,-23.7167,44.3833,74.84,86,100,2.68,MG,1613413221
Tual,-5.6667,132.75,82.67,77,100,19.51,ID,1613413221
Petropavlovsk-Kamchatskiy,53.0452,158.6483,3.2,72,0,11.18,RU,1613413222
Kavieng,-2.5744,150.7967,82.76,75,93,7.81,PG,1613413223
Tombouctou,20.0,-3.0,81.88,15,35,14.36,ML,1613413223
Nouakchott,18.0858,-15.9785,89.6,9,74,13.8,MR,1613413224
Kaitangata,-46.2817,169.8464,48.0,72,83,4.0,NZ,1613413225
Hermanus,-34.4187,19.2345,62.01,71,10,13.29,ZA,1613413225
Narsaq,60.9167,-46.05,24.8,80,75,10.36,GL,1613413226
Thompson,55.7435,-97.8558,-4.0,77,90,5.75,CA,1613412975
Mataura,-46.1927,168.8643,37.69,94,25,1.12,NZ,1613413227
Pacifica,37.6138,-122.4869,57.0,100,90,8.05,US,1613413048
Atuona,-9.8,-139.0333,78.37,79,32,14.52,PF,1613413228
Hong Kong,22.2855,114.1577,66.99,80,6,1.01,HK,1613413006
Punta Arenas,-53.15,-70.9167,59.0,47,75,18.41,CL,1613413230
Upernavik,72.7868,-56.1549,-4.61,90,96,6.46,GL,1613413230
Burnie,-41.0667,145.9167,60.06,84,99,11.81,AU,1613413231
Tiznit Province,29.5833,-9.5,68.88,24,0,6.26,MA,1613413232
Saint-Philippe,-21.3585,55.7679,78.8,73,0,5.75,RE,1613413232
San Patricio,28.017,-97.5169,24.8,86,75,23.02,US,1613413233
Avarua,-21.2078,-159.775,77.0,94,75,2.3,CK,1613413217
Tuktoyaktuk,69.4541,-133.0374,-23.8,76,75,4.5,CA,1613413234
La Sarre,48.8002,-79.1996,1.24,90,100,5.91,CA,1613413227
College,64.8569,-147.8028,-23.8,69,40,3.44,US,1613413235
Hilo,19.7297,-155.09,70.0,68,90,4.61,US,1613413028
Mahébourg,-20.4081,57.7,78.8,83,75,3.44,MU,1613413237
Alofi,-19.0595,-169.9187,80.4,75,59,8.37,NU,1613413237
Busselton,-33.65,115.3333,66.0,95,1,3.0,AU,1613413238
Pavino,59.1139,46.1414,-11.4,90,89,5.75,RU,1613413211
Port Lincoln,-34.7333,135.8667,65.43,78,82,9.53,AU,1613413239
Dikson,73.5069,80.5464,-24.38,81,100,5.39,RU,1613413240
Cardston,49.2,-113.3019,17.6,71,85,2.3,CA,1613413241
Castro,-24.7911,-50.0119,77.14,59,13,9.24,BR,1613413241
Mallaig,54.2169,-111.3685,-13.0,64,82,8.05,CA,1613413242
Silopi,37.2497,42.4694,58.5,41,32,6.64,TR,1613413243
Torbay,47.6666,-52.7314,30.0,69,40,16.11,CA,1613413243
Dingle,10.9995,122.6711,74.5,89,100,6.89,PH,1613413244
Novy Urengoy,66.0833,76.6333,-1.7,92,100,13.96,RU,1613413245
Shimoda,34.6667,138.95,43.0,59,10,1.99,JP,1613413246
Lüderitz,-26.6481,15.1594,70.45,49,0,29.68,NA,1613413246
Jamestown,42.097,-79.2353,28.99,74,90,4.61,US,1613413050
Fiumicino,41.7675,12.2291,44.01,52,0,6.91,IT,1613413247
Celestún,20.8667,-90.4,80.92,66,2,12.68,MX,1613413248
Clyde River,70.4692,-68.5914,-18.4,76,20,3.44,CA,1613413249
Presidente Dutra,-5.29,-44.49,78.89,91,97,2.91,BR,1613413249
Shelburne,44.0787,-80.2041,21.2,63,20,3.44,CA,1613413250
Sydney,-33.8679,151.2073,68.0,94,75,16.11,AU,1613413209
Mucurapo,10.6667,-61.5333,87.01,61,20,16.11,TT,1613413251
Ketchikan,55.3422,-131.6461,35.6,100,90,8.05,US,1613413252
Vanimo,-2.6741,141.3028,77.13,88,99,8.1,PG,1613413252
Kapoeta,4.7717,33.5903,88.63,25,86,13.76,SS,1613413253
Grand Gaube,-20.0064,57.6608,79.0,79,100,5.01,MU,1613413254
Marzuq,14.4,46.4667,63.91,46,2,2.48,YE,1613413255
Banda Aceh,5.5577,95.3222,78.8,81,95,10.54,ID,1613413255
Santiago,-33.4569,-70.6483,78.01,53,20,5.75,CL,1613413006
Bredasdorp,-34.5322,20.0403,64.4,55,25,6.91,ZA,1613413211
Rocha,-34.4833,-54.3333,78.8,66,98,9.84,UY,1613413257
Norman Wells,65.282,-126.8329,-7.6,77,75,3.44,CA,1613413258
Sioux Lookout,50.1001,-91.917,-11.2,53,20,6.91,CA,1613413258
Juradó,7.1053,-77.7641,82.56,72,36,5.73,CO,1613413259
Valleyview,55.0667,-117.2859,-4.0,65,100,8.05,CA,1613413260
Deputatsky,69.3,139.9,-26.5,88,34,0.89,RU,1613413261
Cidreira,-30.1811,-50.2056,82.71,58,45,7.45,BR,1613413261
Sola,-13.8833,167.55,77.0,94,20,12.64,VU,1613413262
Haines Junction,60.7522,-137.5108,-34.6,61,33,0.27,CA,1613413263
Tasiilaq,65.6145,-37.6368,32.0,86,90,3.44,GL,1613413263
Bluff,-46.6,168.3333,49.6,63,80,7.45,NZ,1613413264
Sorong,-0.8833,131.25,79.83,76,100,2.68,ID,1613413264
Denpasar,-8.65,115.2167,78.8,94,40,3.44,ID,1613413265
Souillac,-20.5167,57.5167,78.8,83,75,3.44,MU,1613413266
Chokurdakh,70.6333,147.9167,-18.08,88,85,5.68,RU,1613413266
Calvinia,-31.4707,19.776,68.05,24,0,12.48,ZA,1613413267
Buta,2.7858,24.73,83.3,46,100,3.15,CD,1613413268
Danville,36.586,-79.395,36.0,93,90,3.44,US,1613412975
Carnarvon,-24.8667,113.6333,78.8,89,40,14.97,AU,1613413269
Arraial do Cabo,-22.9661,-42.0278,75.2,94,75,10.36,BR,1613413270
Port-Gentil,-0.7193,8.7815,82.4,83,75,4.61,GA,1613413271
Lebu,-37.6167,-73.65,62.24,59,0,13.11,CL,1613413272
El Cobre,20.0489,-75.9469,84.2,65,40,8.05,CU,1613413272
Beni,0.5,29.4667,70.59,68,95,3.49,CD,1613413273
Barrow,71.2906,-156.7887,-14.8,76,20,10.36,US,1613413104
Christchurch,-43.5333,172.6333,55.99,94,75,13.8,NZ,1613413274
Hamilton,39.1834,-84.5333,23.0,74,90,12.66,US,1613413136
Nurota,40.5614,65.6886,44.6,53,48,3.67,UZ,1613413276
Aswān,24.0934,32.907,73.44,20,0,14.7,EG,1613413276
Atar,20.5169,-13.0499,85.15,13,41,15.79,MR,1613413277
São Filipe,14.8961,-24.4956,73.74,66,90,10.56,CV,1613413277
Talaya,61.3833,152.75,-29.43,82,97,0.4,RU,1613413278
Northam,51.0333,-4.2167,48.99,88,99,10.0,GB,1613413279
Yanam,16.7333,82.2167,67.24,93,4,1.16,IN,1613413279
Abnūb,27.2696,31.1511,68.0,37,0,11.5,EG,1613413280
Half Moon Bay,37.4636,-122.4286,57.2,100,90,9.22,US,1613413281
Sistranda,63.7256,8.834,32.0,69,75,9.22,NO,1613413282
Muroto-misakicho,33.2833,134.15,49.51,54,0,19.15,JP,1613413283
Nanortalik,60.1432,-45.2371,22.57,86,0,21.03,GL,1613413283
Cape Town,-33.9258,18.4232,66.99,48,20,19.57,ZA,1613413284
Talnakh,69.4865,88.3972,-18.69,78,94,7.81,RU,1613413285
Tessalit,20.1986,1.0114,82.87,12,35,16.89,ML,1613413285
Rome,43.2128,-75.4557,27.0,86,90,1.07,US,1613413286
Andenes,69.3143,16.1194,30.2,93,75,10.36,NO,1613413286
Belaya Gora,68.5333,146.4167,-28.95,85,7,3.47,RU,1613413287
Kotovo,50.3211,44.8012,-0.54,92,34,5.97,RU,1613413288
East London,-33.0153,27.9116,68.0,68,20,16.11,ZA,1613413142
San Quintín,30.4833,-115.95,60.3,64,55,9.08,MX,1613413289
Mizdah,31.4451,12.9801,43.14,62,56,18.37,LY,1613413290
Hobart,-42.8794,147.3294,57.2,88,90,5.75,AU,1613413218
Cabo San Lucas,22.8909,-109.9124,73.0,56,20,8.05,MX,1613413283
Houma,29.5958,-90.7195,34.0,93,90,11.5,US,1613413291
Kapaa,22.0752,-159.319,69.8,88,1,4.61,US,1613413292
Kruisfontein,-34.0033,24.7314,64.99,73,35,3.0,ZA,1613413293
Rudnaya Pristan',44.3614,135.8116,11.3,90,100,20.51,RU,1613413293
Saint George,37.1041,-113.5841,48.0,45,90,2.82,US,1613413294
Almaznyy,48.0448,40.045,19.4,73,0,4.47,RU,1613413295
Cervantes,-39.05,-67.3833,69.8,49,0,3.44,AR,1613413295
São João da Barra,-21.6403,-41.0511,78.8,83,90,4.61,BR,1613413296
Hithadhoo,-0.6,73.0833,83.01,70,56,3.51,MV,1613413297
Tazovsky,67.4667,78.7,-7.33,90,100,20.92,RU,1613413297
Abu Samrah,35.3029,37.1841,52.95,72,25,7.87,SY,1613413298
Makīnsk,52.6292,70.4169,22.87,98,100,7.31,KZ,1613413299
Owando,-0.4819,15.8999,78.21,80,67,1.14,CG,1613413299
Oriximiná,-1.7656,-55.8661,82.74,78,99,4.29,BR,1613413300
Nemuro,43.3236,145.575,39.85,92,100,45.05,JP,1613413301
Puerto del Rosario,28.5004,-13.8627,73.4,38,90,10.36,ES,1613413301
Berlevåg,70.8578,29.0864,23.0,93,75,2.3,NO,1613413302
Gizo Government Station,-8.103,156.8419,81.84,78,96,6.29,SB,1613413303
Longyearbyen,78.2186,15.6401,26.6,93,75,6.91,SJ,1613413303
Seymchan,62.8833,152.4333,-31.2,83,41,0.63,RU,1613413304
Siilinjärvi,63.0833,27.6667,24.8,80,90,13.8,FI,1613413305
Richards Bay,-28.783,32.0377,74.43,93,100,24.65,ZA,1613413305
Chui,-33.6971,-53.4616,78.04,71,61,8.52,UY,1613413306
Trincomalee,8.5711,81.2335,78.21,77,11,8.84,LK,1613413306
Cherskiy,68.75,161.3,-10.46,90,99,4.27,RU,1613413307
Gunjur,13.2019,-16.7339,89.6,35,0,5.75,GM,1613413308
Butaritari,3.0707,172.7902,79.2,79,14,14.99,KI,1613413308
Verkhoyansk,67.5447,133.385,-24.59,84,92,2.39,RU,1613413309
Saint-Raphaël,19.4333,-72.2,86.81,38,0,3.24,HT,1613413310
Güzelyurt,38.2772,34.3719,39.2,81,90,9.22,TR,1613413310
Ribeira Grande,38.5167,-28.7,57.2,62,40,16.11,PT,1613413311
Tandil,-37.3217,-59.1332,73.99,65,68,7.0,AR,1613413206
Severobaykal'sk,55.65,109.3167,-15.2,79,55,5.57,RU,1613413312
Provideniya,64.3833,-173.3,0.23,82,83,17.4,RU,1613413313
Pangnirtung,66.1451,-65.7125,-13.0,64,1,4.61,CA,1613413313
Sémbé,1.6481,14.5806,78.93,72,97,3.47,CG,1613413314
Saint Anthony,45.0205,-93.218,-2.0,49,1,4.14,US,1613413315
Korla,41.7597,86.1469,33.8,79,25,1.88,CN,1613413316
Gorom-Gorom,14.4439,-0.2361,90.55,11,14,7.92,BF,1613413316
Kandrian,-6.2167,149.55,78.39,83,98,10.67,PG,1613413317
Cayenne,4.9333,-52.3333,84.2,65,75,17.27,GF,1613413318
Sayyan,15.1718,44.3244,59.76,33,6,3.51,YE,1613413319
High Level,58.5169,-117.136,-2.2,71,75,5.75,CA,1613413319
Vao,-22.6667,167.4833,80.1,79,45,12.48,NC,1613413320
Touros,-5.1989,-35.4608,89.6,51,20,19.57,BR,1613413320
Saint Paul Harbor,57.79,-152.4072,33.8,86,1,3.44,US,1613413321
Port Elizabeth,-33.918,25.5701,68.0,68,0,16.11,ZA,1613413322
Acapulco de Juárez,16.8634,-99.8901,82.4,51,1,4.61,MX,1613413217
Tateyama,34.9833,139.8667,55.99,46,0,15.01,JP,1613413323
Steamboat Springs,40.485,-106.8317,15.8,72,90,3.56,US,1613413057
Białystok,53.1333,23.15,13.82,95,18,3.31,PL,1613413314
Bengkulu,-3.8004,102.2655,77.18,88,100,4.43,ID,1613413325
Methóni,36.8197,21.7049,41.0,45,20,8.05,GR,1613413326
Te Anau,-45.4167,167.7167,41.63,86,52,5.86,NZ,1613413326
Ironton,38.5368,-82.6829,28.4,93,90,6.91,US,1613413327
Roseburg,43.2165,-123.3417,51.8,71,75,8.05,US,1613413196
Peraiyur,9.7358,77.7896,75.2,78,0,2.55,IN,1613413328
Nizwá,22.9333,57.5333,66.4,29,2,4.29,OM,1613413329
Pisco,-13.7,-76.2167,73.4,78,2,9.22,PE,1613413330
Nizhniy Odes,63.6445,54.856,-19.82,88,95,4.05,RU,1613413331
Bella Vista,36.4295,-94.2316,3.2,66,90,11.5,US,1613413331
Ambon City,-3.6954,128.1814,73.4,94,40,3.44,ID,1613413332
Conde,-7.2597,-34.9075,84.2,74,75,10.36,BR,1613413332
Bucerías,20.75,-105.3333,75.99,53,1,9.22,MX,1613413333
Cockburn Town,21.4612,-71.1419,78.06,77,34,22.19,TC,1613413334
Puerto Ayora,-0.7393,-90.3518,84.2,65,40,9.22,EC,1613413334
Guerrero Negro,27.9769,-114.0611,62.46,60,49,7.07,MX,1613413335
Bathsheba,13.2167,-59.5167,84.2,51,40,20.71,BB,1613413336
Qaanaaq,77.484,-69.3632,-6.12,87,89,2.21,GL,1613413336
Chipinge,-20.1883,32.6236,67.82,98,96,3.33,ZW,1613413337
Englewood,39.6478,-104.9878,26.01,39,20,5.75,US,1613413038
Mitsamiouli,-11.3847,43.2844,82.27,80,82,14.65,KM,1613413338
George Town,5.4112,100.3354,82.0,73,20,6.2,MY,1613413277
Hanzhong,33.0728,107.0303,46.31,53,96,1.43,CN,1613413339
Surok,56.4469,48.1214,-2.2,78,0,8.95,RU,1613413340
Ancud,-41.8697,-73.8203,68.0,45,0,5.75,CL,1613413341
Qingdao,36.0986,120.3719,37.99,70,0,13.42,CN,1613413341
Sørland,67.667,12.6934,37.4,75,0,13.8,NO,1613413342
Winnemucca,40.973,-117.7357,44.6,70,90,9.22,US,1613413343
Port Hardy,50.6996,-127.4199,39.2,87,75,5.75,CA,1613413200
Menongue,-14.6585,17.691,68.95,61,94,2.68,AO,1613413274
Saint-Pierre,-21.3393,55.4781,78.8,73,0,5.75,RE,1613413344
Oktyabr'skiy,54.4815,53.471,-6.72,90,94,6.44,RU,1613413345
Daru,-9.0763,143.2092,75.67,91,100,6.26,PG,1613413346
Novopokrovka,49.8425,36.5477,12.2,73,0,2.24,UA,1613413346
Zhelyabovka,45.3988,34.7578,19.89,94,49,3.58,UA,1613413347
Arman',59.7,150.1667,-7.94,81,94,6.33,RU,1613413348
Mossamedes,-15.1961,12.1522,74.66,81,1,14.25,AO,1613413348
Rock Sound,24.9,-76.2,76.6,83,0,15.43,BS,1613413349
São Félix do Xingu,-6.6447,-51.995,73.69,95,100,2.66,BR,1613413350
Bambous Virieux,-20.3428,57.7575,79.0,83,75,3.44,MU,1613413350
Ovalle,-30.5983,-71.2003,82.51,32,8,11.14,CL,1613413351
Narón,43.5167,-8.1528,64.4,39,0,10.36,ES,1613413352
Kizilskoye,52.7255,58.8937,-3.06,89,46,6.89,RU,1613413352
Ozernovskiy,51.5,156.5167,17.33,91,45,9.04,RU,1613413353
Nicoya,10.1483,-85.452,93.2,33,0,6.91,CR,1613413353
Livingstonia,-10.606,34.1063,68.25,83,89,5.91,MW,1613413354
Kungurtug,50.5994,97.5228,12.78,92,99,1.07,RU,1613413355
Níjar,36.9665,-2.206,57.2,62,0,14.97,ES,1613413355
Grindavik,63.8424,-22.4338,39.2,87,40,13.8,IS,1613413356
West Plains,36.7281,-91.8524,1.99,71,90,12.66,US,1613413357
Chokwé,-24.5333,32.9833,77.9,90,100,13.44,MZ,1613413357
Paamiut,61.994,-49.6678,12.74,86,29,9.26,GL,1613413358
Koumac,-20.5667,164.2833,77.59,81,0,6.91,NC,1613413359
Claresholm,50.0333,-113.5852,-4.0,71,12,3.44,CA,1613413359
Yagoua,10.3411,15.2329,85.14,14,19,6.73,CM,1613413360
Severo-Kuril'sk,50.6789,156.125,21.06,90,23,5.91,RU,1613413361
Gladstone,-23.85,151.25,71.6,78,38,5.75,AU,1613413361
Tornio,65.8481,24.1466,26.6,86,0,9.22,FI,1613413362
Pevek,69.7008,170.3133,-18.94,87,12,1.63,RU,1613413363
Namatanai,-3.6667,152.4333,80.65,79,76,4.88,PG,1613413363
Balilihan,9.7561,123.973,78.8,83,90,8.05,PH,1613413364
Semporna,4.4818,118.6112,77.0,94,20,10.4,MY,1613413364
Yar-Sale,66.8333,70.8333,-9.31,89,100,17.13,RU,1613413367
Caxito,-8.5785,13.6643,80.6,74,40,10.36,AO,1613413368
Yen Bai,21.7,104.8667,67.39,79,99,2.68,VN,1613413368
Viedma,-40.8135,-62.9967,71.01,42,26,16.17,AR,1613413369
Merauke,-8.4667,140.3333,76.23,93,100,7.25,ID,1613413370
Ampanihy,-24.7,44.75,78.15,67,100,8.68,MG,1613413370
Pochutla,15.7432,-96.4661,84.2,39,1,11.5,MX,1613413371
Toyooka,35.5333,134.8333,39.56,71,25,19.69,JP,1613413372
Port Macquarie,-31.4333,152.9167,66.99,99,43,11.77,AU,1613413372
Kazachinskoye,57.6953,93.2761,3.74,93,100,7.14,RU,1613413373
Nikolskoye,59.7035,30.7861,19.4,79,75,13.42,RU,1613413374
Khatanga,71.9667,102.5,-33.16,81,0,8.08,RU,1613413374
Husavik,66.0449,-17.3389,37.4,81,75,14.97,IS,1613413375
Nishihara,26.1842,127.7558,62.6,51,75,6.91,JP,1613413376
Vila,42.0304,-8.1588,64.4,36,0,13.8,PT,1613413376
Olafsvik,64.8945,-23.7142,41.94,81,61,26.44,IS,1613413377
Sitka,57.0531,-135.33,28.4,74,40,2.89,US,1613413378
Les Cayes,18.2,-73.75,81.88,67,15,12.01,HT,1613413378
Hualmay,-11.0964,-77.6139,77.72,62,3,9.91,PE,1613413379
Anadyr,64.75,177.4833,-2.2,60,0,15.66,RU,1613413379
Cabedelo,-6.9811,-34.8339,84.2,74,75,10.36,BR,1613413380
São João do Paraíso,-15.3136,-42.0144,81.54,64,89,2.19,BR,1613413381
Vidim,56.4088,103.1106,-19.44,86,44,3.06,RU,1613413381
Airai,-8.9266,125.4092,59.81,100,99,2.59,TL,1613413382
Puksoozero,62.5903,40.6066,-4.5,92,84,6.64,RU,1613413383
Asău,46.4333,26.4,27.0,74,40,17.27,RO,1613413383
Salalah,17.0151,54.0924,75.2,57,0,2.3,OM,1613413384
Tamiahua,21.2667,-97.45,48.25,80,100,17.45,MX,1613413385
Caborca,30.5838,-111.101,59.0,40,92,4.0,MX,1613413385
Sungai Besar,3.6746,100.9867,77.0,94,20,2.77,MY,1613413386
Hare Bay,48.8499,-54.0148,26.6,63,33,6.91,CA,1613413387
