City,City Latitude,City Longitude,Max Temperature,Humidity,Cloud Coverage,Wind Speed,City Country,City Datetime
Oranjemund,-28.55,16.4333,64.02,84,51,8.61,NA,1613619744
Rikitea,-23.1203,-134.9692,79.23,65,13,8.77,PF,1613619599
Pilar,-9.5972,-35.9567,75.2,88,0,4.61,BR,1613619745
Viedma,-40.8135,-62.9967,66.99,75,0,16.51,AR,1613619746
Yellowknife,62.456,-114.3525,-9.0,84,75,10.36,CA,1613619747
Port Shepstone,-30.7414,30.455,66.99,82,0,9.17,ZA,1613619748
Izumo,35.3667,132.7667,30.2,100,75,9.22,JP,1613619749
Airai,-8.9266,125.4092,70.56,92,90,4.79,TL,1613619750
Sterling,39.0062,-77.4286,28.4,63,75,5.75,US,1613619630
Kaitangata,-46.2817,169.8464,64.0,72,9,14.0,NZ,1613619752
Port Alfred,-33.5906,26.891,69.01,89,0,7.0,ZA,1613619753
Haines Junction,60.7522,-137.5108,32.0,64,16,8.05,CA,1613619754
Beringovskiy,63.05,179.3167,-17.14,86,14,7.85,RU,1613619755
Mahébourg,-20.4081,57.7,77.0,83,75,3.44,MU,1613619646
Hong Kong,22.2855,114.1577,69.01,53,39,1.99,HK,1613619515
Muzhi,65.3667,64.6667,-21.91,81,99,4.38,RU,1613619758
Upernavik,72.7868,-56.1549,-13.14,86,0,2.51,GL,1613619759
Bredasdorp,-34.5322,20.0403,60.8,72,49,5.75,ZA,1613619760
Botou,38.0667,116.5667,47.03,38,0,10.42,CN,1613619761
Ushuaia,-54.8,-68.3,51.8,87,75,3.44,AR,1613619727
Bambous Virieux,-20.3428,57.7575,87.01,83,75,3.44,MU,1613619756
Mataura,-46.1927,168.8643,62.01,76,7,11.01,NZ,1613619755
Hobart,-42.8794,147.3294,86.0,28,0,11.5,AU,1613619634
Martapura,-3.4167,114.85,82.4,78,40,3.44,ID,1613619672
Neiafu,-18.65,-173.9833,84.2,70,20,5.75,TO,1613619767
Hilo,19.7297,-155.09,78.8,61,40,6.64,US,1613619594
Punta Arenas,-53.15,-70.9167,48.2,81,90,13.8,CL,1613619549
Bundaberg,-24.85,152.35,86.0,54,90,17.27,AU,1613619770
Scarborough,54.2797,-0.4044,48.0,83,100,7.0,GB,1613619771
Ust'-Omchug,61.15,149.6333,-7.62,86,100,6.04,RU,1613619772
Ribeira Grande,38.5167,-28.7,59.09,77,99,23.64,PT,1613619661
Saint-Philippe,-21.3585,55.7679,84.2,65,0,3.44,RE,1613619774
Kavaratti,10.5669,72.642,81.32,68,89,6.82,IN,1613619775
Dunedin,-45.8742,170.5036,62.6,58,1,3.74,NZ,1613619776
Albany,42.6001,-73.9662,18.0,62,90,6.91,US,1613619704
New Norfolk,-42.7826,147.0587,86.0,29,0,3.0,AU,1613619548
Bluff,-46.6,168.3333,62.01,76,64,11.01,NZ,1613619778
Karratha,-20.7377,116.8463,89.78,53,6,9.28,AU,1613619779
Isangel,-19.55,169.2667,89.6,66,75,6.4,VU,1613619781
Machinga,-15.1685,35.3,69.21,98,100,0.67,MW,1613619782
Cape Town,-33.9258,18.4232,64.99,72,75,2.3,ZA,1613619657
Artesia,33.8658,-118.0831,59.0,62,1,6.91,US,1613619784
Morondava,-20.2833,44.2833,80.58,84,20,10.13,MG,1613619786
Broome,42.2506,-75.833,17.6,57,1,4.61,US,1613619787
Atuona,-9.8,-139.0333,79.48,77,1,15.59,PF,1613619788
Bengkulu,-3.8004,102.2655,86.07,59,57,4.45,ID,1613619576
Antsohihy,-14.8796,47.9875,78.78,90,100,0.87,MG,1613619790
Bergen,60.392,5.328,39.2,65,75,11.5,NO,1613619556
Kodinsk,58.6881,99.1844,1.85,91,100,7.7,RU,1613619610
Marsabit,2.3284,37.9899,62.11,91,100,16.04,KE,1613619793
Cidreira,-30.1811,-50.2056,69.13,70,71,8.3,BR,1613619794
Lashio,22.9333,97.75,81.18,26,0,1.28,MM,1613619795
Acaraú,-2.8856,-40.12,76.53,84,98,6.89,BR,1613619797
Busselton,-33.65,115.3333,66.99,55,4,8.01,AU,1613619798
Barrow,71.2906,-156.7887,-18.4,69,90,11.5,US,1613619770
Saint-Louis,16.3333,-15.0,77.0,33,100,10.11,SN,1613619801
Lima,-12.0432,-77.0282,73.99,83,0,8.05,PE,1613619616
Raja,8.4596,25.678,59.02,32,32,6.22,SS,1613619803
George Town,5.4112,100.3354,87.8,37,20,16.11,MY,1613619616
Baykit,61.67,96.37,-6.07,85,100,4.74,RU,1613619805
Coquimbo,-29.9533,-71.3436,60.8,77,0,3.44,CL,1613619806
Hamilton,39.1834,-84.5333,21.99,73,90,5.75,US,1613619523
Carnarvon,-24.8667,113.6333,80.6,69,37,26.46,AU,1613619756
Martinsville,36.6915,-79.8725,32.0,64,1,3.44,US,1613619748
Lüderitz,-26.6481,15.1594,63.5,76,0,15.77,NA,1613619809
Kudahuvadhoo,2.6708,72.8944,82.08,77,0,11.81,MV,1613619732
Nago,26.5881,127.9761,57.2,47,75,13.8,JP,1613619812
Yar-Sale,66.8333,70.8333,-18.78,87,100,10.71,RU,1613619813
Goiatuba,-18.0125,-49.3547,69.6,90,95,2.17,BR,1613619814
Ugoofaaru,5.6667,73.0,81.54,70,51,8.7,MV,1613619815
Tabas,33.5959,56.9244,64.13,23,73,6.04,IR,1613619721
Pacific Grove,36.6177,-121.9166,55.4,71,1,3.38,US,1613619817
George Town,5.4112,100.3354,87.8,37,20,16.11,MY,1613619619
Thompson,55.7435,-97.8558,-4.0,84,1,4.14,CA,1613619768
Avarua,-21.2078,-159.775,80.6,83,90,8.05,CK,1613619820
Los Llanos de Aridane,28.6585,-17.9182,62.6,55,0,6.91,ES,1613619750
Tiruvallur,13.15,79.9167,80.6,61,40,9.22,IN,1613619822
Posse,-14.0931,-46.3694,68.7,96,99,8.32,BR,1613619823
Lompoc,34.6391,-120.4579,51.8,71,1,10.36,US,1613619755
Koungou,-12.7336,45.2042,80.6,94,75,2.3,YT,1613619825
Bontang,0.1333,117.5,75.74,91,99,13.69,ID,1613619770
Romny,50.751,33.4747,3.97,95,100,1.52,UA,1613619827
Vao,-22.6667,167.4833,79.83,89,74,14.41,NC,1613619828
Sundumbili,-29.1337,31.3975,60.8,88,0,3.44,ZA,1613619829
Codrington,-38.2667,141.9667,92.75,25,0,7.87,AU,1613619830
Kamaishi,39.2667,141.8833,35.6,64,40,8.05,JP,1613619831
Hermanus,-34.4187,19.2345,55.99,88,18,8.75,ZA,1613619766
Te Anau,-45.4167,167.7167,73.15,42,6,3.49,NZ,1613619642
Yeppoon,-23.1333,150.7333,87.8,45,40,9.22,AU,1613619756
Kabanjahe,3.1001,98.4908,86.0,66,40,6.91,ID,1613619835
Vaini,-21.2,-175.2,86.0,70,20,6.91,TO,1613619836
Jamestown,42.097,-79.2353,18.0,85,1,5.75,US,1613619837
Puerto Ayora,-0.7393,-90.3518,75.99,94,82,1.99,EC,1613619765
Venice of the Philippines,4.6628,119.3928,82.65,78,100,20.87,PH,1613619839
Gwadar,25.1216,62.3254,71.11,59,0,6.78,PK,1613619840
Tautira,-17.7333,-149.15,86.0,66,20,4.61,PF,1613619842
Narsaq,60.9167,-46.05,14.0,48,20,1.14,GL,1613619843
Esperance,-33.8667,121.9,71.6,53,75,26.46,AU,1613619844
Kokstad,-30.5472,29.4241,58.84,61,0,5.21,ZA,1613619845
Manyana,-23.4,21.7167,67.14,79,0,8.28,BW,1613619846
Tuatapere,-46.1333,167.6833,62.01,76,7,11.01,NZ,1613619847
Batagay-Alyta,67.8006,130.4114,-23.24,84,91,2.01,RU,1613619848
Fallon,39.4735,-118.7774,33.8,51,75,9.22,US,1613619849
Chui,-33.6971,-53.4616,64.8,96,27,8.14,UY,1613619850
Sitka,57.0531,-135.33,41.0,60,75,14.97,US,1613619851
Torbay,47.6666,-52.7314,28.0,80,90,21.85,CA,1613619852
Tuktoyaktuk,69.4541,-133.0374,-34.6,67,40,4.61,CA,1613619853
Anadyr,64.75,177.4833,-23.8,76,20,11.18,RU,1613619690
Whitehorse,60.7161,-135.0538,21.2,79,75,18.41,CA,1613619855
Goderich,43.7501,-81.7165,10.4,79,100,3.44,CA,1613619671
Province of Brindisi,40.5833,17.6667,48.2,87,20,6.91,IT,1613619857
Povenets,62.8487,34.8262,-9.45,88,100,5.99,RU,1613619858
Butaritari,3.0707,172.7902,81.91,81,3,19.64,KI,1613619859
Waipawa,-41.4122,175.5153,68.0,63,0,11.5,NZ,1613619860
Lebu,-37.6167,-73.65,54.7,87,0,3.56,CL,1613619664
Adwa,14.1646,38.8955,61.05,54,80,3.38,ET,1613619862
Kiryat Gat,31.61,34.7642,42.01,100,65,16.02,IL,1613619863
Severo-Kuril'sk,50.6789,156.125,30.78,93,99,14.54,RU,1613619864
Kaili,-3.4626,120.2147,79.48,77,35,2.26,ID,1613619865
Grindavik,63.8424,-22.4338,37.4,93,75,11.5,IS,1613619866
Hithadhoo,-0.6,73.0833,82.8,67,1,6.17,MV,1613619604
Qaanaaq,77.484,-69.3632,-9.85,72,25,5.79,GL,1613619868
Bethel,41.3712,-73.414,23.0,58,1,3.98,US,1613619869
San Quintín,30.4833,-115.95,56.32,75,0,8.75,MX,1613619870
Flin Flon,54.7682,-101.865,-4.72,92,86,4.0,CA,1613619835
Saint Paul Harbor,57.79,-152.4072,33.8,80,90,3.98,US,1613619872
Namatanai,-3.6667,152.4333,85.06,69,89,6.35,PG,1613619765
Saint-Paul,-21.0096,55.2707,77.0,83,21,4.81,RE,1613619874
Khatanga,71.9667,102.5,-20.58,88,100,8.81,RU,1613619875
Saint George,37.1041,-113.5841,42.01,36,1,16.11,US,1613619876
El Alto,-4.2714,-81.2147,72.72,81,44,14.0,PE,1613619877
Qaqortoq,60.7167,-46.0333,14.0,48,20,1.14,GL,1613619878
Tak,16.5833,98.8333,84.2,42,0,2.3,TH,1613619879
Stornoway,58.2093,-6.3865,44.6,81,20,14.97,GB,1613619880
Lumeje,-11.55,20.7833,64.08,86,97,3.11,AO,1613619881
Provideniya,64.3833,-173.3,1.4,60,0,6.71,RU,1613619836
Ambilobe,-13.2,49.05,78.48,87,78,1.43,MG,1613619883
Najrān,17.4924,44.1277,66.2,45,0,2.3,SA,1613619884
Dalvik,65.9702,-18.5286,30.2,93,20,2.86,IS,1613619885
Belyy Yar,53.6039,91.3903,21.2,79,75,13.42,RU,1613619886
Lagoa,39.05,-27.9833,57.85,79,100,26.24,PT,1613619888
Norman Wells,65.282,-126.8329,-9.4,84,20,3.44,CA,1613619889
Vitim,59.4511,112.5578,11.89,93,100,3.8,RU,1613619889
Tiksi,71.6872,128.8694,-21.75,87,100,4.54,RU,1613619890
San Onofre,9.7359,-75.5263,78.31,74,74,1.79,CO,1613619891
Craig,40.5153,-107.5464,12.2,85,75,3.44,US,1613619732
Kirakira,-10.4544,161.9205,85.75,70,85,5.44,SB,1613619893
Arraial do Cabo,-22.9661,-42.0278,76.26,93,93,5.97,BR,1613619894
Vila Franca do Campo,37.7167,-25.4333,53.6,87,75,8.66,PT,1613619895
Noumea,-22.2763,166.4572,84.99,74,90,8.05,NC,1613619896
Chokurdakh,70.6333,147.9167,-19.61,85,90,6.6,RU,1613619897
Faanui,-16.4833,-151.75,81.28,73,17,12.48,PF,1613619898
Monrovia,6.3005,-10.7969,73.4,94,75,5.75,LR,1613619899
Tezu,27.9167,96.1667,79.56,24,63,3.67,IN,1613619900
Nhulunbuy,-12.2333,136.7667,80.6,83,75,13.02,AU,1613619902
Mount Gambier,-37.8333,140.7667,91.4,22,0,14.97,AU,1613619760
Nome,64.5011,-165.4064,-0.4,60,1,6.91,US,1613619904
Kapaa,22.0752,-159.319,75.2,73,1,18.41,US,1613619874
Bereket,39.2446,55.5154,44.29,70,100,9.69,TM,1613619869
Umm Kaddadah,13.6017,26.6876,52.27,39,0,22.21,SD,1613619908
Azul,-36.777,-59.8585,59.41,69,0,5.35,AR,1613619764
Talnakh,69.4865,88.3972,-20.45,85,100,1.88,RU,1613619910
La Ronge,55.1001,-105.2842,-4.0,77,48,4.61,CA,1613619910
Souillac,-20.5167,57.5167,77.0,83,75,3.44,MU,1613619912
Tonalá,20.6167,-103.2333,62.6,29,1,5.75,MX,1613619913
Kariba,-16.5167,28.8,70.05,85,100,5.21,ZW,1613619914
Dongsheng,39.8161,109.9776,40.69,52,0,16.33,CN,1613619915
Altay,47.8667,88.1167,29.32,83,57,1.32,CN,1613619916
Kokkola,63.8385,23.1307,0.0,84,40,5.75,FI,1613619917
Oriximiná,-1.7656,-55.8661,74.64,90,100,2.91,BR,1613619918
Vedelago,45.6872,12.0164,41.0,87,75,1.77,IT,1613619919
Soto,-32.8107,-61.4026,73.0,82,0,4.61,AR,1613619920
Saskylakh,71.9167,114.0833,-33.48,79,1,5.97,RU,1613619921
Cherskiy,68.75,161.3,-24.32,85,0,1.21,RU,1613619923
Shumikha,55.2261,63.2961,-2.47,90,100,8.32,RU,1613619924
Honiara,-9.4333,159.95,84.4,72,100,3.2,SB,1613619734
Sidi Ali,36.0998,0.4206,53.15,42,1,12.57,DZ,1613619926
Tahoua,14.8888,5.2692,62.6,16,0,6.91,NE,1613619927
Kailua,21.4022,-157.7394,77.0,73,40,9.22,US,1613619637
Itarema,-2.9248,-39.9167,75.96,85,98,6.33,BR,1613619929
Husavik,66.0449,-17.3389,30.2,93,20,8.03,IS,1613619930
Gbarnga,6.9956,-9.4722,71.04,96,98,2.75,LR,1613619931
Nanortalik,60.1432,-45.2371,15.82,80,10,8.66,GL,1613619932
Kingaroy,-26.5333,151.8333,78.8,53,75,16.11,AU,1613619933
Adrar,20.5022,-10.0711,65.34,26,100,6.4,MR,1613619785
Anloga,5.7947,0.8973,82.4,89,20,6.91,GH,1613619797
Forestville,38.8451,-76.875,30.99,74,1,4.61,US,1613619935
Burnie,-41.0667,145.9167,71.01,61,82,14.0,AU,1613619936
Verkhnevilyuysk,63.4453,120.3167,-15.54,88,100,6.06,RU,1613619937
Mahanoro,-19.9,48.8,78.91,84,98,1.1,MG,1613619938
Talaya,61.3833,152.75,-13.16,84,100,3.8,RU,1613619939
Luoyang,34.6836,112.4536,57.99,99,100,6.06,CN,1613619847
Olafsvik,64.8945,-23.7142,37.17,95,100,10.33,IS,1613619852
Oktyabr'skoye,43.0645,44.7417,5.0,85,100,1.45,RU,1613619942
Muravlenko,63.7898,74.523,-34.02,83,1,11.05,RU,1613619943
Atambua,-9.1061,124.8925,80.92,79,70,8.32,ID,1613619944
Tarauacá,-8.1614,-70.7656,74.16,95,100,2.24,BR,1613619945
Dikson,73.5069,80.5464,-27.13,84,100,11.3,RU,1613619946
Tasiilaq,65.6145,-37.6368,32.0,93,90,29.93,GL,1613619947
Barotac Nuevo,10.8942,122.7044,81.23,68,81,19.51,PH,1613619948
Dingle,10.9995,122.6711,80.6,68,42,18.84,PH,1613619949
Cabo San Lucas,22.8909,-109.9124,64.0,82,1,10.36,MX,1613619918
Dhankutā,26.9833,87.3333,66.0,34,0,2.1,NP,1613619951
‘Āhuimanu,21.4447,-157.8378,77.0,73,40,9.22,US,1613619952
Luanda,-8.8368,13.2343,78.8,83,75,5.75,AO,1613619701
Lubumbashi,-11.6609,27.4794,62.96,97,100,3.62,CD,1613619954
Iqaluit,63.7506,-68.5145,-5.01,59,75,4.61,CA,1613619955
Labuhan,-6.8844,112.2051,82.87,80,95,10.22,ID,1613619956
Lorengau,-2.0226,147.2712,84.69,76,100,11.18,PG,1613619767
Launceston,-41.45,147.1667,77.0,44,1,12.66,AU,1613619958
Port Elizabeth,-33.918,25.5701,68.0,83,0,20.71,ZA,1613619723
Ponta do Sol,32.6667,-17.1,57.99,63,41,1.99,PT,1613619960
Henties Bay,-22.116,14.2845,62.01,91,0,6.55,NA,1613619961
Khonsa,27.0167,95.5667,71.42,41,85,3.24,IN,1613619962
Kununurra,-15.7667,128.7333,95.0,32,94,8.05,AU,1613619963
Tobol,52.6844,62.5794,5.97,94,100,22.21,KZ,1613619964
Anchorage,61.2181,-149.9003,28.99,74,20,4.72,US,1613619723
Fortuna,40.5982,-124.1573,46.0,87,1,2.82,US,1613619966
Wajid,3.8093,43.2471,71.22,72,85,14.16,SO,1613619967
Belmonte,-15.8631,-38.8828,78.8,89,20,6.91,BR,1613619968
Yumen,40.2833,97.2,44.71,44,0,15.23,CN,1613619771
Kunya,12.2233,8.5325,55.22,36,0,11.18,NG,1613619970
Ilulissat,69.2167,-51.1,5.0,66,90,5.75,GL,1613619971
Port Hardy,50.6996,-127.4199,44.6,70,90,18.41,CA,1613619965
Jagalūr,14.5333,76.35,77.31,40,77,9.82,IN,1613619973
Kavieng,-2.5744,150.7967,85.23,68,98,8.46,PG,1613619974
Makakilo City,21.3469,-158.0858,77.0,61,1,6.91,US,1613619974
Altamira,-3.2033,-52.2064,72.23,97,99,4.0,BR,1613619975
Umluj,25.0213,37.2685,61.12,60,49,18.07,SA,1613619976
Talcahuano,-36.7167,-73.1167,57.2,88,0,4.61,CL,1613619977
Boissevain,49.2306,-100.0559,5.0,78,90,6.91,CA,1613619978
Clyde River,70.4692,-68.5914,-11.2,84,20,6.91,CA,1613619979
Port Macquarie,-31.4333,152.9167,75.2,73,75,14.97,AU,1613619980
Vostok,46.4856,135.8833,10.17,94,100,6.15,RU,1613619981
Hasaki,35.7333,140.8333,48.0,18,20,11.5,JP,1613619982
Amarante do Maranhão,-5.5667,-46.7422,72.16,96,100,2.37,BR,1613619983
Aktobe,50.2797,57.2072,5.0,85,90,13.42,KZ,1613619942
Black Diamond,47.3087,-122.0032,39.99,90,94,3.69,US,1613619904
Kupang,-10.1667,123.5833,75.2,100,90,11.5,ID,1613619986
Makkah al Mukarramah,21.4267,39.8261,61.38,49,100,16.02,SA,1613619987
São Filipe,14.8961,-24.4956,71.49,63,79,9.15,CV,1613619988
Pevek,69.7008,170.3133,-26.52,85,0,1.23,RU,1613619775
Bushehr,28.9684,50.8385,68.0,64,90,11.5,IR,1613619749
Bull Savanna,17.8868,-77.5902,71.92,80,2,11.48,JM,1613619991
Ihosy,-22.4,46.1167,70.36,88,100,2.28,MG,1613619992
Tomé,-36.6167,-72.95,57.2,88,0,4.61,CL,1613619993
Klaksvík,62.2266,-6.589,42.8,93,75,11.5,FO,1613619823
Caravelas,-17.7125,-39.2481,79.77,76,100,9.28,BR,1613619956
Hambantota,6.1241,81.1185,80.6,83,0,6.91,LK,1613619996
Irmo,34.086,-81.1832,46.0,65,90,6.91,US,1613619997
Kloulklubed,7.0419,134.2556,86.0,74,75,8.05,PW,1613619999
Saldanha,-33.0117,17.9442,59.0,77,1,1.14,ZA,1613620000
Kulhudhuffushi,6.6221,73.07,81.19,66,36,6.02,MV,1613620001
Longyearbyen,78.2186,15.6401,32.0,86,75,4.61,SJ,1613619927
Nikolskoye,59.7035,30.7861,-11.0,76,20,4.47,RU,1613619761
Mae Sai,20.4335,99.8762,78.01,78,20,2.3,TH,1613619818
Cuxhaven,53.8718,8.6909,46.4,87,100,8.05,DE,1613620004
Teya,60.3778,92.6267,-4.14,85,100,10.07,RU,1613620005
Mt. Pleasant,32.7941,-79.8626,50.0,93,90,6.91,US,1613620006
Santa Maria,-29.6842,-53.8069,66.2,88,0,3.8,BR,1613619960
Touros,-5.1989,-35.4608,78.8,83,75,5.75,BR,1613620009
Tual,-5.6667,132.75,83.84,78,12,20.94,ID,1613620010
Ossora,59.2353,163.0719,8.24,93,100,16.62,RU,1613620010
Inhambane,-23.865,35.3833,79.21,87,100,19.17,MZ,1613620002
Ayagoz,47.9714,80.4392,26.4,88,27,1.57,KZ,1613620012
Antofagasta,-23.65,-70.4,62.6,88,0,4.61,CL,1613619985
Ancud,-41.8697,-73.8203,57.99,94,90,16.11,CL,1613620014
Fukuechō,32.6881,128.8419,37.4,65,75,16.11,JP,1613620015
Nara,34.6851,135.8049,43.0,52,40,19.57,JP,1613619725
Manokwari,-0.8667,134.0833,83.71,71,98,3.76,ID,1613620017
Christchurch,-43.5333,172.6333,69.8,46,42,12.66,NZ,1613619905
Mildura,-34.2,142.15,91.99,25,0,13.8,AU,1613619884
Safi,32.2994,-9.2372,56.88,81,91,4.76,MA,1613619727
Nicoya,10.1483,-85.452,78.8,61,0,4.61,CR,1613620021
Krivodol,43.3744,23.4844,38.98,75,31,9.84,BG,1613620022
Bunia,1.5667,30.25,61.97,96,92,5.53,CD,1613620023
Ulladulla,-35.35,150.4667,71.01,88,75,3.44,AU,1613620024
Gobabis,-22.45,18.9667,66.18,44,0,3.53,NA,1613620025
Aswān,24.0934,32.907,41.81,63,0,8.21,EG,1613620026
Gorontalo,0.5412,123.0595,88.63,56,62,8.05,ID,1613620027
Gamba,-2.65,10.0,73.8,94,100,2.42,GA,1613620028
Luau,-10.7073,22.2247,64.44,98,96,2.17,AO,1613620029
Guayaramerín,-10.8368,-65.3614,73.17,97,100,3.38,BO,1613620030
Kaina,12.6374,8.5873,55.06,36,0,11.68,NG,1613620031
Saint-Pierre,-21.3393,55.4781,84.2,65,0,3.44,RE,1613620032
Poum,-20.2333,164.0167,82.54,79,100,12.37,NC,1613620033
Tshikapa,-6.4167,20.8,71.15,93,100,0.69,CD,1613620034
Karasjok,69.4719,25.5112,3.2,85,90,5.75,NO,1613620035
Rio Grande,-32.035,-52.0986,68.0,93,94,1.01,BR,1613619877
Kimbe,-5.5502,150.1429,86.18,67,71,6.44,PG,1613620037
Kasaoka,34.5,133.5,39.0,44,40,14.97,JP,1613620038
Dolores,-36.3132,-57.6792,59.85,96,0,3.98,AR,1613620039
Salalah,17.0151,54.0924,71.6,73,20,5.75,OM,1613620040
Dārayyā,33.459,36.2374,33.8,93,40,17.27,SY,1613620040
Barsovo,61.1667,73.1667,-31.0,68,40,6.71,RU,1613620041
Vangaindrano,-23.35,47.6,77.99,78,96,2.28,MG,1613620042
Del Rio,29.3627,-100.8968,42.48,77,50,5.01,US,1613620044
Aksay,47.26,39.87,8.6,85,0,2.86,RU,1613620045
Vila,42.0304,-8.1588,51.01,93,100,18.99,PT,1613620046
Balashikha,55.8094,37.9581,1.4,84,20,6.71,RU,1613620047
Constitución,-35.3333,-72.4167,52.65,83,0,5.3,CL,1613619956
Buraidah,26.326,43.975,55.4,100,75,11.5,SA,1613620049
Burē,10.7,37.0667,56.25,50,30,2.86,ET,1613620050
Piritiba,-11.7303,-40.5553,68.29,93,100,1.57,BR,1613620054
Turek,52.0155,18.5005,33.01,94,100,3.96,PL,1613620055
Antalaha,-14.9003,50.2788,78.64,89,9,3.04,MG,1613620056
Leningradskiy,69.3833,178.4167,-24.25,85,0,3.76,RU,1613620057
Mizdah,31.4451,12.9801,44.26,52,0,6.64,LY,1613620058
Tigzirt,36.8886,4.1198,55.94,43,82,8.57,DZ,1613620060
Carmo do Paranaíba,-19.0008,-46.3161,68.0,100,99,1.77,BR,1613620061
Dolinsk,47.35,142.8,26.6,86,75,24.61,RU,1613620062
Aklavik,68.2191,-135.0107,-16.6,76,100,1.14,CA,1613619803
Vetluga,57.8557,45.781,-7.1,91,92,4.07,RU,1613620064
Pitimbu,-7.4706,-34.8086,77.0,88,20,2.3,BR,1613620065
Ternate,0.8,127.4,82.76,75,99,11.43,ID,1613620066
São Gabriel da Cachoeira,-0.1303,-67.0892,73.09,98,88,1.88,BR,1613620067
Asău,46.4333,26.4,30.99,72,99,2.62,RO,1613620068
Muros,42.7762,-9.0603,52.0,92,100,15.01,ES,1613620069
Tucumã,-0.1833,-50.05,76.39,86,100,7.56,BR,1613620070
Katsuura,35.1333,140.3,46.4,26,40,14.97,JP,1613619790
High Rock,26.6208,-78.2833,75.2,83,20,11.5,BS,1613620072
Calama,-22.4667,-68.9333,51.8,62,0,3.44,CL,1613620073
Iquitos,-3.7481,-73.2472,75.2,94,75,3.44,PE,1613620037
Tiznit Province,29.5833,-9.5,53.51,39,100,3.65,MA,1613620076
Vershino-Shakhtaminskiy,51.3012,117.8868,20.66,91,59,11.83,RU,1613620077
Mogadishu,2.0371,45.3438,77.13,82,70,16.02,SO,1613619810
Agnibilékrou,7.1344,-3.2047,72.95,95,100,2.62,CI,1613620079
Tarakan,3.3,117.6333,84.2,79,75,6.91,ID,1613619891
Yanam,16.7333,82.2167,77.0,78,20,6.91,IN,1613620081
Tiarei,-17.5333,-149.3333,86.0,66,20,4.61,PF,1613620082
Bubaque,11.2833,-15.8333,77.79,63,69,6.71,GW,1613620083
Pangnirtung,66.1451,-65.7125,-17.57,82,97,1.81,CA,1613620036
Lupiro,-8.3833,36.6667,72.97,92,100,4.16,TZ,1613620085
East London,-33.0153,27.9116,62.6,94,0,8.05,ZA,1613620086
San Patricio,28.017,-97.5169,41.0,87,90,20.71,US,1613620087
Olinda,-8.0089,-34.8553,78.8,73,40,4.61,BR,1613620088
Pozo Colorado,-23.4923,-58.7972,73.58,59,0,4.61,PY,1613620088
Amahai,-3.3333,128.9167,86.83,66,19,6.26,ID,1613620089
Jinchang,38.4953,102.1739,44.78,46,0,1.59,CN,1613620090
Balen,51.1684,5.1717,44.6,81,75,5.75,BE,1613620091
Ocara,-4.4908,-38.5967,71.33,96,91,2.66,BR,1613620092
Bayjī,34.9311,43.487,47.59,53,0,8.66,IQ,1613620094
Kampot,10.6167,104.1833,82.4,65,40,12.66,KH,1613620095
Nemuro,43.3236,145.575,28.4,80,75,5.75,JP,1613619798
Udachny,66.4167,112.4,-22.76,82,99,4.72,RU,1613620097
Maceió,-9.6658,-35.7353,75.2,88,0,4.61,BR,1613620098
Bathurst,-33.4166,149.5806,70.0,64,56,3.0,AU,1613620023
Palmer,42.1584,-72.3287,21.0,67,90,1.72,US,1613620009
Deming,32.2687,-107.7586,41.0,30,1,4.61,US,1613620101
Mar del Plata,-38.0023,-57.5575,66.99,88,90,3.44,AR,1613620102
Uvira,-3.4067,29.1458,72.77,63,100,2.55,CD,1613620103
Santa Isabel Rio Negro,-0.4139,-65.0192,77.2,72,14,2.55,BR,1613620104
Mayya,61.7333,130.2811,-23.8,69,0,6.71,RU,1613620105
San Blas,21.5167,-105.2667,64.71,82,30,3.56,MX,1613620106
Ola,59.5833,151.2833,13.46,89,92,13.02,RU,1613620107
Belaya Gora,68.5333,146.4167,-17.55,87,100,4.97,RU,1613620108
Estelle,29.8458,-90.1067,41.0,100,90,14.97,US,1613620109
Bentiu,9.2333,29.8333,68.23,23,87,7.65,SS,1613620003
Kungurtug,50.5994,97.5228,28.42,88,91,3.0,RU,1613620061
Pamanukan,-6.2842,107.8106,82.09,83,93,11.32,ID,1613620112
Ishigaki,24.3448,124.1572,62.6,51,75,14.97,JP,1613620112
Coro,11.4045,-69.6734,73.29,84,48,11.36,VE,1613620114
Khuzdar,27.7384,66.6434,61.23,19,0,1.48,PK,1613620115
Hobyo,5.3505,48.5268,77.99,73,100,13.69,SO,1613620116
Westport,41.1415,-73.3579,27.0,56,72,6.46,US,1613620052
Praia,14.9215,-23.5087,69.8,56,95,13.8,CV,1613619911
Loksa,59.5764,25.7214,0.0,77,0,1.14,EE,1613620119
Żyrardów,52.0488,20.446,26.01,86,0,5.75,PL,1613620120
Tooele,40.5308,-112.2983,32.0,93,90,8.05,US,1613620120
Örnsköldsvik,63.2909,18.7153,10.4,100,90,2.3,SE,1613620121
Pyapon,16.2833,95.6833,89.2,42,2,11.14,MM,1613620047
Salinópolis,-0.6136,-47.3561,77.36,88,100,10.63,BR,1613620123
Yangi Marg`ilon,40.4272,71.7189,44.6,42,0,2.3,UZ,1613620124
Orodara,10.9492,-4.9342,75.2,83,20,9.22,BF,1613620125
College,64.8569,-147.8028,5.0,78,75,3.44,US,1613620127
Kruisfontein,-34.0033,24.7314,57.99,90,0,15.64,ZA,1613620128
Cap Malheureux,-19.9842,57.6142,86.0,75,100,8.43,MU,1613620013
Nabire,-3.3667,135.4833,89.04,55,44,6.85,ID,1613620130
Malpe,13.35,74.7167,77.0,73,75,4.61,IN,1613620131
Vardø,70.3705,31.1107,24.8,63,75,12.66,NO,1613620132
Alofi,-19.0595,-169.9187,86.0,66,61,9.22,NU,1613620016
Iskateley,67.6803,53.1512,3.92,93,100,12.44,RU,1613620133
Bandarbeyla,9.4942,50.8122,74.89,65,76,7.9,SO,1613620134
Mossendjo,-2.9506,12.7261,69.37,98,100,1.83,CG,1613620135
Ontario,34.0633,-117.6509,59.0,44,20,9.22,US,1613620136
Ābdānān,32.9926,47.4198,50.56,90,100,7.45,IR,1613620137
Nuuk,64.1835,-51.7216,12.2,67,75,14.97,GL,1613620138
Semey,50.4111,80.2275,15.8,86,40,8.95,KZ,1613620138
Sisimiut,66.9395,-53.6735,0.18,82,0,8.21,GL,1613620140
Marzuq,14.4,46.4667,63.63,29,0,3.09,YE,1613620141
San Cristobal,7.7669,-72.225,64.65,89,87,1.81,VE,1613620142
Kasongo,-4.45,26.6667,68.86,99,100,0.25,CD,1613620143
Kavos,38.8268,22.8322,39.0,77,66,1.01,GR,1613620143
Mount Isa,-20.7333,139.5,87.8,45,90,16.11,AU,1613620144
Moultonborough,43.7548,-71.3967,14.0,57,1,3.29,US,1613620145
Alice Springs,-23.7,133.8833,96.8,23,75,9.22,AU,1613620146
Prainha,-1.8,-53.48,73.85,95,89,5.01,BR,1613620147
Maracaju,-21.6144,-55.1683,66.99,86,0,3.15,BR,1613620148
Itoman,26.1247,127.6694,57.2,58,75,21.85,JP,1613620149
Kontagora,10.3999,5.4695,68.18,24,0,9.86,NG,1613619870
Ullapool,57.8987,-5.1604,39.0,94,100,1.01,GB,1613620151
Cascais,38.6979,-9.4215,59.0,90,100,12.91,PT,1613620153
Strezhevoy,60.7333,77.5889,-27.4,75,0,6.71,RU,1613620154
Lavrentiya,65.5833,-171.0,-14.62,85,0,4.65,RU,1613620155
Camopi,3.1655,-52.3158,69.06,98,88,2.15,GF,1613620156
Laas,46.6166,10.7002,32.0,68,0,6.91,IT,1613620157
Pochutla,15.7432,-96.4661,73.0,83,27,3.71,MX,1613620157
Quesnel,52.9999,-122.5029,12.2,92,1,3.09,CA,1613620158
Northam,51.0333,-4.2167,51.01,84,100,15.01,GB,1613620160
Rincon,32.296,-81.2354,51.8,71,90,6.91,US,1613620161
Ubari,26.5921,12.7805,40.69,65,27,3.91,LY,1613620162
Timrå,62.487,17.3257,21.99,73,75,10.36,SE,1613620163
Nouakchott,18.0858,-15.9785,68.0,42,100,11.5,MR,1613620164
Shingū,33.7333,135.9833,41.0,45,75,19.57,JP,1613620165
Ulaangom,49.9811,92.0667,3.06,91,70,0.2,MN,1613620166
Agudos,-22.4692,-48.9875,69.01,96,0,4.0,BR,1613620167
Camacha,33.0833,-16.3333,60.8,88,0,12.66,PT,1613620168
Jurm,36.8648,70.8342,39.29,54,0,6.69,AF,1613620169
Carberry,49.8689,-99.3602,-9.4,77,40,6.91,CA,1613620170
Sur,22.5667,59.5289,76.64,26,0,6.24,OM,1613620171
Marawi,7.9986,124.2928,81.0,81,85,5.01,PH,1613620172
Saint Lawrence,36.0553,14.204,51.01,87,75,3.44,MT,1613620173
Yairipok,24.6667,94.0667,60.8,77,20,2.3,IN,1613620174
Bud,39.447,-86.1758,19.99,74,100,6.69,US,1613620175
Tomatlán,19.9333,-105.25,59.79,91,2,1.59,MX,1613620176
Hat Yai,7.0084,100.4767,86.0,54,40,17.27,TH,1613620177
Igarka,67.4667,86.5833,-20.02,87,100,3.85,RU,1613620178
Vojens,55.2464,9.306,43.0,100,90,8.05,DK,1613620179
Oranjestad,12.524,-70.027,78.8,73,40,17.27,AW,1613620180
Kindu,-2.95,25.95,70.21,97,100,2.35,CD,1613620014
Aykhal,66.0,111.5,-19.55,84,98,3.76,RU,1613620157
Aasiaat,68.7098,-52.8699,-8.16,91,30,5.23,GL,1613620183
Weatherford,32.7593,-97.7972,28.4,74,90,8.05,US,1613620099
Mabaruma,8.2,-59.7833,70.5,96,89,3.38,GY,1613620186
Kumluca,36.3703,30.2869,41.81,53,0,3.67,TR,1613620187
Bathsheba,13.2167,-59.5167,78.8,65,40,24.16,BB,1613620188
Santa Teresa del Tuy,10.2341,-66.6631,78.8,83,40,4.61,VE,1613620189
Saint-Joseph,-21.3667,55.6167,84.2,65,0,3.44,RE,1613620190
Saint Anthony,45.0205,-93.218,9.0,72,90,5.75,US,1613620059
Linhares,-19.3911,-40.0722,74.73,95,100,5.79,BR,1613620037
Mayo,38.8876,-76.5119,32.0,51,1,3.44,US,1613620193
Zuénoula,7.4292,-6.0431,76.19,81,100,7.25,CI,1613620194
Ballina,-28.8667,153.5667,78.8,69,75,16.11,AU,1613620195
Olenegorsk,68.15,33.3,-1.55,92,100,2.51,RU,1613620196
Mapua,-41.25,173.1,69.01,43,0,4.0,NZ,1613620197
San Miguel de Cauri,-10.1,-76.5833,41.32,71,100,5.35,PE,1613620198
Castro Alves,-12.7656,-39.4283,71.76,95,100,2.19,BR,1613620199
Flinders,-34.5833,150.8552,73.99,79,84,1.99,AU,1613620200
Hailar,49.2,119.7,9.97,93,98,12.82,CN,1613620201
Svetlaya,46.5389,138.3297,25.84,88,100,2.84,RU,1613620202
Khovu-Aksy,51.1333,93.6,22.28,88,100,8.32,RU,1613620203
Tura,25.5198,90.2201,82.4,25,94,2.13,IN,1613620043
Corrales,35.2378,-106.6067,30.0,86,90,8.05,US,1613620205
Marsá Maţrūḩ,31.3525,27.2453,53.6,58,40,13.8,EG,1613620206
Kismayo,-0.3582,42.5454,78.1,80,98,13.49,SO,1613620207
Otane,-39.8833,176.6333,71.01,62,0,5.01,NZ,1613620208
Elyria,41.3684,-82.1077,19.99,73,40,9.22,US,1613620209
Cotacachi,0.3,-78.2667,55.4,94,90,3.44,EC,1613620210
Plainview,40.7765,-73.4673,30.0,50,1,5.77,US,1613620211
Quatre Cocos,-20.2078,57.7625,84.99,83,75,3.44,MU,1613620212
Hofn,64.2539,-15.2082,39.87,72,100,4.09,IS,1613620213
Beian,63.6559,9.5683,33.8,60,0,20.71,NO,1613620214
Departamento de Maldonado,-34.6667,-54.9167,71.6,83,75,11.5,UY,1613620215
Brigantine,39.4101,-74.3646,30.0,74,1,6.76,US,1613620179
Nishihara,26.1842,127.7558,57.2,50,75,17.27,JP,1613620217
Leirvik,59.7798,5.5005,39.2,70,75,19.57,NO,1613620218
North Bend,43.4065,-124.2243,46.4,76,1,5.75,US,1613620043
Rāyagada,19.1667,83.4167,85.42,31,0,2.66,IN,1613620220
Qasigiannguit,68.8193,-51.1922,5.0,66,90,5.75,GL,1613620221
Jizan,17.3333,42.6667,77.0,83,20,4.61,SA,1613620222
Castro,-24.7911,-50.0119,58.12,84,3,2.42,BR,1613620223
Tulun,54.5611,100.5792,13.26,95,100,3.56,RU,1613620224
Quelimane,-17.8786,36.8883,75.2,88,75,6.91,MZ,1613620225
Sambava,-14.2667,50.1667,78.44,89,4,3.42,MG,1613620226
Yankton,42.8711,-97.3973,10.4,79,90,3.44,US,1613620227
Sarangani,5.4033,125.4636,83.28,67,42,5.77,PH,1613620227
Cranbrook,49.4999,-115.7688,26.6,59,90,3.44,CA,1613620064
Bend,44.0582,-121.3153,30.2,64,1,6.91,US,1613619856
Omboué,-1.5746,9.2618,75.83,88,100,8.77,GA,1613620230
Narón,43.5167,-8.1528,53.01,93,20,12.66,ES,1613620231
Senj,44.9894,14.9058,44.6,93,90,4.61,HR,1613620232
Oliveira dos Brejinhos,-12.3169,-42.8961,66.45,96,100,3.24,BR,1613620233
Oktyabr'skiy,54.4815,53.471,-13.4,87,87,5.95,RU,1613620234
Fillmore,43.6666,-92.1002,7.0,78,40,3.53,US,1613620235
Tanout,14.9709,8.8879,52.34,38,0,14.07,NE,1613620237
Sittwe,20.15,92.9,80.69,37,0,2.68,MM,1613620238
Puksoozero,62.5903,40.6066,-16.53,87,98,6.73,RU,1613620239
Tutayev,57.8853,39.5406,-20.2,76,0,4.74,RU,1613620239
Ponta Delgada,37.7333,-25.6667,53.6,87,75,10.47,PT,1613620240
Chernyshevskiy,63.0128,112.4714,-16.83,88,99,2.51,RU,1613620241
Askiz,53.1319,90.5264,26.24,93,100,13.71,RU,1613620242
Mezen',65.8522,44.24,-2.16,92,100,9.57,RU,1613620243
Sola,-13.8833,167.55,91.4,66,75,5.75,VU,1613620244
Ca Mau,9.1769,105.15,86.22,43,2,14.38,VN,1613620245
Kenai,60.5544,-151.2583,30.2,80,1,9.22,US,1613620246
Creston,41.0586,-94.3614,12.2,100,90,5.75,US,1613620247
Albury,-36.0833,146.9167,87.01,41,0,8.05,AU,1613619948
Totness,5.8833,-56.3167,75.51,83,23,9.71,SR,1613620249
Kuah,6.3265,99.8432,87.8,45,20,8.05,MY,1613620250
Vila Velha,-20.3297,-40.2925,84.0,69,0,10.36,BR,1613620251
Saint-Leu,-21.15,55.2833,84.2,65,0,3.44,RE,1613620252
Abong Mbang,3.9833,13.1833,60.22,33,98,1.99,CM,1613620253
Tarragona,41.129,1.249,52.0,87,90,4.61,ES,1613620197
Meulaboh,4.1363,96.1285,86.07,59,51,2.01,ID,1613620255
Deputatsky,69.3,139.9,-21.06,89,100,2.68,RU,1613620256
Buchanan,5.8808,-10.0467,73.4,94,75,5.75,LR,1613620257
Rome,43.2128,-75.4557,16.0,79,40,3.44,US,1613620258
Hue,16.4667,107.6,75.2,73,40,13.8,VN,1613620259
Agüimes,27.9054,-15.4461,62.6,48,61,11.5,ES,1613620260
Panjāb,34.388,67.0233,19.78,60,0,2.66,AF,1613620261
Malbork,54.0359,19.0266,21.2,79,75,8.05,PL,1613620041
Smithers,54.7804,-127.1743,17.6,93,20,1.7,CA,1613620264
Pamekasan,-7.1568,113.4746,84.11,72,44,11.99,ID,1613620265
Boyabat,41.4689,34.7667,10.9,87,0,2.06,TR,1613620266
Guerrero Negro,27.9769,-114.0611,57.79,77,2,14.88,MX,1613620267
Huanan,46.2167,130.5167,9.73,94,91,16.04,CN,1613620268
Kuala Pilah,2.7389,102.2487,84.0,57,20,11.5,MY,1613620269
Ambanja,-13.6833,48.45,78.8,85,75,2.3,MG,1613620270
Khovd,48.0056,91.6419,34.99,64,72,4.65,MN,1613620271
Kaeo,-35.1,173.7833,70.0,64,89,11.01,NZ,1613620238
Kralendijk,12.15,-68.2667,78.8,69,61,16.11,BQ,1613620273
Changji,44.0167,87.3167,12.2,92,90,2.24,CN,1613620274
Plaster Rock,46.9065,-67.39,6.8,72,1,4.61,CA,1613620275
Tessalit,20.1986,1.0114,58.96,28,44,14.29,ML,1613620276
Alexandria,31.2156,29.9553,53.6,62,40,16.11,EG,1613620277
Raudeberg,61.9875,5.1352,41.0,60,90,19.57,NO,1613620278
Trelew,-43.249,-65.3051,63.28,46,19,3.0,AR,1613620279
Winder,33.9926,-83.7202,46.99,61,90,8.05,US,1613620280
Mackay,-21.15,149.2,81.0,69,75,17.27,AU,1613620281
Trairi,-3.2778,-39.2689,75.18,86,100,4.88,BR,1613620282
Vallenar,-28.5708,-70.7581,58.41,76,0,1.66,CL,1613620283
Eslāmshahr,35.5605,51.2346,55.4,50,75,9.22,IR,1613620284
Cayenne,4.9333,-52.3333,71.6,100,20,9.78,GF,1613620284
Eyl,7.9803,49.8164,73.96,72,100,14.32,SO,1613620285
Graaff-Reinet,-32.2522,24.5308,61.0,85,0,1.99,ZA,1613620287
Havøysund,70.9963,24.6622,24.8,93,20,8.05,NO,1613620288
Newtonmore,57.066,-4.1192,43.0,81,40,5.75,GB,1613620289
Nantucket,41.2835,-70.0995,30.0,58,1,3.44,US,1613620142
Hearst,49.6835,-83.6665,-5.8,77,0,3.44,CA,1613620291
Bacungan,9.9106,118.7022,89.6,62,20,16.11,PH,1613620292
Abu Samrah,35.3029,37.1841,36.46,87,31,7.07,SY,1613620293
Gimli,50.6336,-96.9907,-2.2,65,45,5.61,CA,1613620294
Asunción,-25.3007,-57.6359,71.6,83,0,4.03,PY,1613620295
Erenhot,43.6475,111.9767,28.8,90,0,12.01,CN,1613620297
Lufilufi,-13.8745,-171.5986,82.4,94,75,10.36,WS,1613620298
Roald,62.5833,6.1333,39.2,60,56,10.36,NO,1613620299
Kutum,14.2,24.6667,43.83,51,0,13.96,SD,1613620300
Guilin,25.2819,110.2864,59.0,51,0,2.24,CN,1613620301
Uyuni,-20.4597,-66.825,48.99,47,16,12.01,BO,1613620302
Zhigansk,66.7697,123.3711,-23.58,83,52,10.58,RU,1613620156
Balasore,21.4942,86.9317,83.61,25,0,7.49,IN,1613620304
Privolzhye,52.8649,48.6044,-13.68,85,8,6.11,RU,1613620305
Port Augusta,-32.5,137.7667,96.8,16,0,17.27,AU,1613620306
Ust-Maya,60.4167,134.5333,-18.6,84,46,3.85,RU,1613620307
Seoul,37.5683,126.9778,26.6,31,0,16.11,KR,1613620308
Stony Mountain,50.0864,-97.2196,1.4,65,1,6.91,CA,1613620309
Jiazi,22.8779,116.067,63.37,61,8,16.67,CN,1613620310
Salinas,36.6777,-121.6555,55.4,58,1,5.75,US,1613620311
Warri,5.5167,5.75,76.19,92,59,3.13,NG,1613620312
Rocha,-34.4833,-54.3333,64.51,95,26,6.11,UY,1613620286
Iberia,29.9502,-91.7507,37.4,93,90,12.66,US,1613620314
Yerbogachën,61.2767,108.0108,-12.06,87,94,3.71,RU,1613620315
Suşehri,40.1644,38.0867,3.45,85,73,1.66,TR,1613620316
